City_ID,City,Country,Date,Lat,Lng,Max Temp,Humidity,Cloudiness,Wind Speed
0,Hilo,US,2021-03-28 19:47:03,19.7297,-155.09,68.0,88,90,6.91
1,The Pas,CA,2021-03-28 19:47:04,53.8251,-101.2541,30.2,80,90,21.85
2,Ushuaia,AR,2021-03-28 19:47:04,-54.8,-68.3,46.4,61,40,25.32
3,Gijon,ES,2021-03-28 19:47:04,43.5357,-5.6615,57.0,87,0,3.0
4,Kunashak,RU,2021-03-28 19:47:05,55.7032,61.5498,30.2,59,0,15.66
5,Mataura,NZ,2021-03-28 19:47:05,-46.1927,168.8643,53.01,99,75,1.01
6,Broken Hill,AU,2021-03-28 19:47:05,-31.95,141.4333,57.2,58,2,8.05
7,Limon,CR,2021-03-28 19:47:05,10.0,-83.0333,84.2,65,20,6.91
8,Hobart,AU,2021-03-28 19:42:56,-42.8794,147.3294,53.6,50,20,14.97
9,Mingshui,CN,2021-03-28 19:47:06,36.7167,117.5,61.0,30,100,4.88
10,Payo,ID,2021-03-28 19:47:06,-3.7508,103.6372,72.46,99,100,2.01
11,Wuxue,CN,2021-03-28 19:47:06,29.8506,115.5525,60.93,87,0,4.52
12,Kavaratti,IN,2021-03-28 19:44:30,10.5669,72.642,83.62,73,100,6.33
13,Carnarvon,AU,2021-03-28 19:47:07,-24.8667,113.6333,73.4,94,0,3.65
14,Praya,CV,2021-03-28 19:47:07,14.9215,-23.5087,69.8,68,40,25.32
15,Hithadhoo,MV,2021-03-28 19:46:48,-0.6,73.0833,80.15,83,100,30.65
16,Campbell River,CA,2021-03-28 19:47:07,50.0163,-125.2446,44.6,76,75,13.8
17,Sinnamary,GF,2021-03-28 19:47:08,5.3833,-52.95,79.93,79,98,14.16
18,Mayo,US,2021-03-28 19:47:08,38.8876,-76.5119,73.0,73,20,12.66
19,Naron,ES,2021-03-28 19:47:08,43.5167,-8.1528,60.8,48,0,2.3
20,Charlestown,AU,2021-03-28 19:47:08,-32.95,151.6667,64.0,97,21,3.22
21,Smithers,CA,2021-03-28 19:47:09,54.7804,-127.1743,35.6,48,75,14.97
22,Nipawin,CA,2021-03-28 19:47:09,53.3668,-104.0009,39.2,65,1,13.8
23,Hambantota,LK,2021-03-28 19:42:58,6.1241,81.1185,73.4,100,90,3.44
24,Torbay,CA,2021-03-28 19:47:09,47.6666,-52.7314,28.99,68,75,9.22
25,San Luis,AR,2021-03-28 19:42:10,-33.295,-66.3356,73.0,24,0,5.86
26,Tanout,NE,2021-03-28 19:47:10,14.9709,8.8879,74.03,12,0,13.78
27,Fare,PF,2021-03-28 19:45:04,-16.7,-151.0167,81.97,73,18,21.34
28,Maarianhamina,AX,2021-03-28 19:47:10,60.0973,19.9348,39.2,87,0,18.41
29,Puerto Escondido,MX,2021-03-28 19:47:10,15.85,-97.0667,87.8,74,1,6.91
30,Bluff,NZ,2021-03-28 19:46:23,-46.6,168.3333,53.01,99,96,1.01
31,Ponta Do Sol,PT,2021-03-28 19:47:11,32.6667,-17.1,62.01,66,74,3.0
32,Chokurdakh,RU,2021-03-28 19:47:11,70.6333,147.9167,-16.42,100,98,4.68
33,Souillac,MU,2021-03-28 19:47:11,-20.5167,57.5167,77.0,88,20,4.61
34,Tuktoyaktuk,CA,2021-03-28 19:47:12,69.4541,-133.0374,-16.6,76,75,13.8
35,Clinton,US,2021-03-28 19:47:12,42.587,-82.9199,45.0,76,90,20.71
36,Rikitea,PF,2021-03-28 19:47:12,-23.1203,-134.9692,79.14,71,6,15.43
37,Victoria,HK,2021-03-28 19:45:25,22.2855,114.1577,75.99,88,10,5.03
38,Rio Gallegos,AR,2021-03-28 19:47:12,-51.6226,-69.2181,60.8,25,0,12.66
39,Busselton,AU,2021-03-28 19:47:13,-33.65,115.3333,54.0,94,0,6.6
40,Albany,US,2021-03-28 19:42:23,42.6001,-73.9662,52.0,88,100,3.0
41,Laguna,US,2021-03-28 19:47:13,38.421,-121.4238,75.99,32,1,5.75
42,Vaini,TO,2021-03-28 19:47:13,-21.2,-175.2,78.8,89,75,9.22
43,Quito,EC,2021-03-28 19:45:11,-0.2299,-78.5249,73.4,43,75,3.44
44,Oytal,KZ,2021-03-28 19:47:14,42.9057,73.2697,47.17,88,100,3.78
45,Bonthe,SL,2021-03-28 19:47:14,7.5264,-12.505,80.22,81,22,8.43
46,Kavieng,PG,2021-03-28 19:46:36,-2.5744,150.7967,82.63,75,92,14.14
47,Port Alfred,ZA,2021-03-28 19:47:14,-33.5906,26.891,65.84,73,100,19.24
48,Vera Cruz,BR,2021-03-28 19:42:43,-12.6333,-41.0333,90.41,20,16,6.06
49,New Norfolk,AU,2021-03-28 19:47:15,-42.7826,147.0587,52.0,59,67,1.99
50,Antalaha,MG,2021-03-28 19:47:15,-14.9003,50.2788,77.32,89,99,5.53
51,Taoudenni,ML,2021-03-28 19:47:15,22.6783,-3.9836,84.78,5,100,11.65
52,Mount Gambier,AU,2021-03-28 19:47:16,-37.8333,140.7667,57.2,94,90,4.61
53,Avarua,CK,2021-03-28 19:47:16,-21.2078,-159.775,80.6,83,75,16.11
54,Cape Town,ZA,2021-03-28 19:47:03,-33.9258,18.4232,70.0,72,0,6.91
55,Aykhal,RU,2021-03-28 19:47:16,66.0,111.5,12.88,99,100,5.95
56,Acapulco,MX,2021-03-28 19:43:54,16.8634,-99.8901,84.2,61,1,11.5
57,Kapaa,US,2021-03-28 19:47:16,22.0752,-159.319,75.0,68,20,19.57
58,Kaitangata,NZ,2021-03-28 19:47:17,-46.2817,169.8464,53.13,95,66,3.0
59,Puerto Ayora,EC,2021-03-28 19:47:17,-0.7393,-90.3518,82.4,78,20,11.5
60,Coihaique,CL,2021-03-28 19:42:59,-45.5752,-72.0662,66.2,52,40,6.91
61,Kamenka,RU,2021-03-28 19:47:17,51.3223,42.7678,33.01,73,99,8.14
62,Fortuna,US,2021-03-28 19:47:18,40.5982,-124.1573,48.2,100,75,10.36
63,Lumeje,AO,2021-03-28 19:47:18,-11.55,20.7833,66.67,94,100,1.88
64,Mar Del Plata,AR,2021-03-28 19:46:11,-38.0023,-57.5575,68.0,83,40,14.97
65,Belmonte,BR,2021-03-28 19:47:18,-15.8631,-38.8828,84.2,65,20,16.11
66,Katsuura,JP,2021-03-28 19:47:18,35.1333,140.3,66.2,88,75,16.11
67,San Patricio,US,2021-03-28 19:47:19,28.017,-97.5169,69.8,52,90,21.85
68,Bembereke,BJ,2021-03-28 19:47:19,10.2283,2.6634,83.3,14,0,4.18
69,Norman Wells,CA,2021-03-28 19:47:19,65.282,-126.8329,-4.0,65,75,19.57
70,Georgetown,MY,2021-03-28 19:47:20,5.4112,100.3354,78.8,94,20,1.14
71,Bambous Virieux,MU,2021-03-28 19:47:20,-20.3428,57.7575,78.01,88,20,4.61
72,Mahebourg,MU,2021-03-28 19:46:17,-20.4081,57.7,77.0,88,20,4.61
73,Moundou,TD,2021-03-28 19:47:20,8.5667,16.0833,85.93,39,43,1.07
74,Faanui,PF,2021-03-28 19:47:20,-16.4833,-151.75,82.53,73,16,22.3
75,Nikolskoye,RU,2021-03-28 19:47:21,59.7035,30.7861,41.0,87,90,4.5
76,Cayenne,GF,2021-03-28 19:47:21,4.9333,-52.3333,82.4,74,75,14.97
77,Lata,PT,2021-03-28 19:47:21,40.1629,-8.3327,59.0,80,69,2.33
78,Biu,NG,2021-03-28 19:47:22,10.6129,12.1946,78.58,18,0,11.83
79,Tual,ID,2021-03-28 19:47:22,-5.6667,132.75,83.16,76,100,16.28
80,Butaritari,KI,2021-03-28 19:47:22,3.0707,172.7902,81.46,74,74,12.82
81,Cradock,ZA,2021-03-28 19:47:22,-32.1642,25.6192,59.95,68,100,4.14
82,Barrow,US,2021-03-28 19:47:23,71.2906,-156.7887,-25.6,68,20,10.36
83,Thompson,CA,2021-03-28 19:47:23,55.7435,-97.8558,28.4,43,75,6.91
84,Jerome,US,2021-03-28 19:47:23,42.7241,-114.5186,68.0,24,1,8.05
85,Atuona,PF,2021-03-28 19:47:23,-9.8,-139.0333,81.1,72,100,17.69
86,Tiksi,RU,2021-03-28 19:47:24,71.6872,128.8694,1.63,99,100,1.72
87,Cockburn Town,TC,2021-03-28 19:47:24,21.4612,-71.1419,80.6,65,40,18.41
88,Komsomolskiy,UZ,2021-03-28 19:47:24,40.4272,71.7189,50.0,93,75,2.3
89,Upernavik,GL,2021-03-28 19:46:41,72.7868,-56.1549,-17.7,80,24,2.44
90,Saskylakh,RU,2021-03-28 19:47:25,71.9167,114.0833,-4.18,99,98,2.19
91,Hermanus,ZA,2021-03-28 19:47:25,-34.4187,19.2345,68.0,70,100,5.01
92,Constitucion,CL,2021-03-28 19:44:19,-35.3333,-72.4167,67.5,47,0,3.67
93,Ribeira Grande,PT,2021-03-28 19:47:25,38.5167,-28.7,60.8,77,40,11.5
94,Seoul,KR,2021-03-28 19:46:28,37.5683,126.9778,50.0,93,90,5.75
95,Virginia Beach,US,2021-03-28 19:47:00,36.8529,-75.978,84.2,48,75,20.71
96,Voi,KE,2021-03-28 19:47:26,-3.3945,38.563,70.41,88,100,3.65
97,Araguacu,BR,2021-03-28 19:47:26,-12.9306,-49.8264,82.04,73,100,5.68
98,Provideniya,RU,2021-03-28 19:47:26,64.3833,-173.3,11.55,91,100,22.03
99,Hobyo,SO,2021-03-28 19:42:45,5.3505,48.5268,80.58,78,45,12.48
100,Severo-Kurilsk,RU,2021-03-28 19:47:27,50.6789,156.125,25.48,78,8,12.73
101,Saint-Philippe,RE,2021-03-28 19:47:27,-21.3585,55.7679,78.8,78,0,6.91
102,Bodden Town,KY,2021-03-28 19:47:27,19.2833,-81.25,86.0,66,40,13.8
103,Hovd,MN,2021-03-28 19:47:27,48.0056,91.6419,36.39,57,100,3.98
104,Bam,IR,2021-03-28 19:47:28,29.106,58.357,65.14,15,17,13.82
105,Porto Nacional,BR,2021-03-28 19:47:28,-10.7081,-48.4172,87.8,66,75,4.61
106,Aldan,RU,2021-03-28 19:47:22,58.6031,125.3894,13.91,96,100,2.33
107,Leningradskiy,RU,2021-03-28 19:47:28,69.3833,178.4167,-14.22,95,99,2.91
108,Tromso,NO,2021-03-28 19:47:29,69.6496,18.957,32.0,74,0,3.44
109,Chuy,UY,2021-03-28 19:47:29,-33.6971,-53.4616,69.37,84,93,4.61
110,Soni,TZ,2021-03-28 19:47:29,-4.85,38.3667,64.02,89,51,2.3
111,Arraial Do Cabo,BR,2021-03-28 19:43:37,-22.9661,-42.0278,86.0,74,20,9.22
112,Cherskiy,RU,2021-03-28 19:47:30,68.75,161.3,-9.27,93,100,0.74
113,Aklavik,CA,2021-03-28 19:47:30,68.2191,-135.0107,-5.8,54,20,5.75
114,Port Lincoln,AU,2021-03-28 19:47:30,-34.7333,135.8667,60.6,82,2,7.38
115,Punta Arenas,CL,2021-03-28 19:44:38,-53.15,-70.9167,55.4,41,0,16.11
116,Storslett,NO,2021-03-28 19:47:30,69.7678,21.0247,33.8,64,0,6.91
117,San Cristobal,VE,2021-03-28 19:43:43,7.7669,-72.225,84.2,58,40,5.79
118,Bredasdorp,ZA,2021-03-28 19:47:31,-34.5322,20.0403,62.6,82,100,13.8
119,Dicabisagan,PH,2021-03-28 19:47:31,17.0818,122.4157,76.39,87,65,2.35
120,Buckeye,US,2021-03-28 19:45:01,33.3703,-112.5838,84.0,13,0,13.8
121,Portland,US,2021-03-28 19:43:24,45.5234,-122.6762,50.0,66,90,9.22
122,Kemijarvi,FI,2021-03-28 19:47:32,66.7131,27.4306,38.03,96,100,8.75
123,Banda Aceh,ID,2021-03-28 19:47:32,5.5577,95.3222,78.21,81,94,3.58
124,Frumusita,RO,2021-03-28 19:47:32,45.6667,28.0667,44.4,65,100,15.19
125,Tyukhtet,RU,2021-03-28 19:47:32,56.5389,89.3011,23.58,96,58,5.73
126,Edd,ER,2021-03-28 19:47:33,13.9297,41.6925,79.47,69,5,6.02
127,Riberalta,BO,2021-03-28 19:47:33,-10.9833,-66.1,79.97,93,97,1.45
128,Zhigansk,RU,2021-03-28 19:47:33,66.7697,123.3711,-1.75,99,100,3.31
129,Mantua,IT,2021-03-28 19:47:34,45.1667,10.7833,55.99,70,38,4.9
130,Joshimath,IN,2021-03-28 19:47:34,30.5667,79.5667,52.88,57,15,5.61
131,Lagoa,PT,2021-03-28 19:46:45,39.05,-27.9833,59.27,81,100,21.27
132,Igarka,RU,2021-03-28 19:47:34,67.4667,86.5833,-7.94,99,60,8.95
133,Kamyaran,IR,2021-03-28 19:47:34,34.7956,46.9355,41.0,38,0,0.63
134,Andra,RU,2021-03-28 19:47:35,62.5147,65.8878,15.08,93,100,7.54
135,Jaciara,BR,2021-03-28 19:44:27,-15.9653,-54.9683,88.52,49,4,2.17
136,Proletarskiy,RU,2021-03-28 19:47:35,50.7914,35.7731,39.2,56,0,4.47
137,Paoua,CF,2021-03-28 19:47:35,7.2427,16.4406,79.02,53,63,5.01
138,Kutum,SD,2021-03-28 19:47:36,14.2,24.6667,67.12,12,5,16.08
139,Betong,TH,2021-03-28 19:44:32,5.7743,101.0723,71.15,98,44,1.92
140,Qaanaaq,GL,2021-03-28 19:47:36,77.484,-69.3632,-16.26,81,72,3.91
141,Jamestown,US,2021-03-28 19:45:23,42.097,-79.2353,48.0,81,90,17.18
142,Majene,ID,2021-03-28 19:46:29,-3.5403,118.9707,77.52,83,100,3.11
143,Caravelas,BR,2021-03-28 19:47:36,-17.7125,-39.2481,81.16,69,0,8.1
144,Karratha,AU,2021-03-28 19:46:52,-20.7377,116.8463,87.04,45,74,6.82
145,Yerbogachen,RU,2021-03-28 19:47:37,61.2767,108.0108,4.03,100,100,2.06
146,Vanimo,PG,2021-03-28 19:47:37,-2.6741,141.3028,76.53,87,100,4.38
147,La Asuncion,VE,2021-03-28 19:47:37,11.0333,-63.8628,78.98,76,9,17.22
148,Talisay,PH,2021-03-28 19:47:38,10.2447,123.8494,78.8,89,90,4.61
149,Avera,US,2021-03-28 19:47:38,33.194,-82.5271,68.0,83,90,21.85
150,Sorland,NO,2021-03-28 19:47:38,67.667,12.6934,41.0,65,0,17.27
151,Pevek,RU,2021-03-28 19:47:38,69.7008,170.3133,-21.19,100,66,1.68
152,Port Elizabeth,ZA,2021-03-28 19:46:24,-33.918,25.5701,64.4,77,0,13.8
153,Itarema,BR,2021-03-28 19:47:39,-2.9248,-39.9167,80.38,76,12,6.6
154,Sur,OM,2021-03-28 19:47:39,22.5667,59.5289,83.57,39,94,8.08
155,Hofn,IS,2021-03-28 19:47:00,64.2539,-15.2082,32.36,57,66,15.05
156,Berlevag,NO,2021-03-28 19:47:39,70.8578,29.0864,35.6,69,0,16.11
157,Inhambane,MZ,2021-03-28 19:47:06,-23.865,35.3833,77.0,73,20,6.91
158,Kupino,RU,2021-03-28 19:47:40,54.3663,77.2981,29.43,98,100,5.75
159,Khatanga,RU,2021-03-28 19:47:40,71.9667,102.5,-2.78,98,100,6.69
160,Salinopolis,BR,2021-03-28 19:43:09,-0.6136,-47.3561,80.19,81,46,10.18
161,Pontes E Lacerda,BR,2021-03-28 19:47:40,-15.2261,-59.3353,82.94,66,70,3.53
162,La Spezia,IT,2021-03-28 19:47:41,44.1105,9.8434,54.0,81,4,3.18
163,Dubbo,AU,2021-03-28 19:47:41,-32.25,148.6167,50.0,87,61,8.05
164,Muros,ES,2021-03-28 19:47:41,42.7762,-9.0603,60.8,48,0,3.44
165,Naze,JP,2021-03-28 19:43:40,28.3667,129.4833,63.21,83,38,5.39
166,Pacifica,US,2021-03-28 19:47:09,37.6138,-122.4869,64.0,93,1,11.5
167,Isangel,VU,2021-03-28 19:46:51,-19.55,169.2667,78.21,83,5,5.55
168,Lucapa,AO,2021-03-28 19:42:54,-8.4192,20.7447,67.55,93,99,3.18
169,Fegyvernek,HU,2021-03-28 19:47:42,47.2667,20.5333,48.2,40,0,6.91
170,Kardymovo,RU,2021-03-28 19:47:42,54.8902,32.4311,32.36,95,99,5.66
171,Chiautla,MX,2021-03-28 19:47:43,19.5333,-98.8833,84.2,13,20,5.75
172,Griffith,US,2021-03-28 19:47:43,41.5284,-87.4237,48.2,42,75,17.27
173,Coquimbo,CL,2021-03-28 19:43:16,-29.9533,-71.3436,64.4,63,40,9.22
174,Jardim,BR,2021-03-28 19:47:43,-21.4803,-56.1381,90.57,37,41,9.44
175,Benguela,AO,2021-03-28 19:47:44,-12.5763,13.4055,78.49,79,62,2.8
176,Bud,US,2021-03-28 19:47:44,39.447,-86.1758,44.01,70,100,20.15
177,Jalu,LY,2021-03-28 19:47:44,29.0331,21.5482,62.04,31,60,6.33
178,Dikson,RU,2021-03-28 19:46:34,73.5069,80.5464,-25.04,100,96,6.93
179,Makakilo City,US,2021-03-28 19:47:44,21.3469,-158.0858,77.0,60,1,10.36
180,Ulaanbaatar,MN,2021-03-28 19:47:06,47.9077,106.8832,12.2,79,0,2.24
181,Geraldton,AU,2021-03-28 19:47:45,-28.7667,114.6,66.2,82,1,3.44
182,Lorengau,PG,2021-03-28 19:47:45,-2.0226,147.2712,82.04,76,100,7.83
183,Itanagar,IN,2021-03-28 19:47:45,27.1,93.6167,66.4,21,0,4.76
184,Bathsheba,BB,2021-03-28 19:47:46,13.2167,-59.5167,82.4,61,40,20.71
185,Yulara,AU,2021-03-28 19:47:46,-25.2406,130.9889,73.4,56,0,11.5
186,Kiunga,PG,2021-03-28 19:47:46,-6.1219,141.2906,71.33,99,100,3.27
187,Esperance,AU,2021-03-28 19:46:44,-33.8667,121.9,59.0,94,40,5.75
188,Killam,CA,2021-03-28 19:47:46,52.7834,-111.8518,57.2,28,100,10.36
189,Swedru,GH,2021-03-28 19:47:47,5.5371,-0.6998,82.4,83,20,6.91
190,Tasiilaq,GL,2021-03-28 19:46:33,65.6145,-37.6368,19.4,53,20,9.22
191,Poso,ID,2021-03-28 19:47:47,-1.3959,120.7524,77.34,83,100,4.03
192,Auki,SB,2021-03-28 19:47:47,-8.7676,160.7034,78.01,86,36,3.29
193,Kununurra,AU,2021-03-28 19:47:48,-15.7667,128.7333,75.2,94,100,4.14
194,Fairbanks,US,2021-03-28 19:47:48,64.8378,-147.7164,12.0,66,1,5.75
195,Ancud,CL,2021-03-28 19:47:48,-41.8697,-73.8203,68.0,60,20,17.27
196,Lixourion,GR,2021-03-28 19:47:49,38.2019,20.4314,51.8,93,20,4.97
197,Lebu,CL,2021-03-28 19:47:00,-37.6167,-73.65,61.97,72,0,13.49
198,Songea,TZ,2021-03-28 19:47:49,-10.6833,35.65,71.6,88,75,1.61
199,Namibe,AO,2021-03-28 19:47:47,-15.1961,12.1522,73.92,74,42,4.41
200,Saint George,US,2021-03-28 19:45:02,37.1041,-113.5841,70.0,27,1,3.44
201,Erenhot,CN,2021-03-28 19:47:49,43.6475,111.9767,33.39,27,57,7.07
202,Amapa,BR,2021-03-28 19:47:49,1.0,-52.0,76.75,96,100,4.36
203,Huangchuan,CN,2021-03-28 19:47:50,32.1272,115.0394,58.12,75,0,6.51
204,Biltine,TD,2021-03-28 19:47:50,14.5333,20.9167,77.63,12,19,18.61
205,Salym,RU,2021-03-28 19:47:50,60.0625,71.4789,3.36,97,66,4.14
206,San Ramon De La Nueva Oran,AR,2021-03-28 19:47:51,-23.1322,-64.326,68.79,59,87,4.43
207,Hay River,CA,2021-03-28 19:46:05,60.8156,-115.7999,15.8,73,100,16.11
208,Montalvo,EC,2021-03-28 19:47:51,-1.8,-79.3333,86.0,79,93,2.59
209,Meulaboh,ID,2021-03-28 19:47:51,4.1363,96.1285,77.27,86,96,2.37
210,Ust-Tsilma,RU,2021-03-28 19:47:51,65.441,52.1498,33.58,97,100,6.8
211,Mirandela,PT,2021-03-28 19:47:52,41.4874,-7.187,52.0,60,12,3.13
212,Villeneuve-Sur-Lot,FR,2021-03-28 19:47:52,44.5,0.6667,55.99,66,0,3.36
213,Hasaki,JP,2021-03-28 19:47:52,35.7333,140.8333,62.6,94,75,6.91
214,Abu Dhabi,AE,2021-03-28 19:44:53,24.4667,54.3667,75.2,69,0,12.66
215,Erdenet,MN,2021-03-28 19:47:53,49.0333,104.0833,26.47,40,6,4.09
216,Wajid,SO,2021-03-28 19:47:53,3.8093,43.2471,82.2,50,61,18.86
217,Misratah,LY,2021-03-28 19:47:53,32.3754,15.0925,62.78,61,99,13.33
218,Sao Filipe,CV,2021-03-28 19:47:54,14.8961,-24.4956,69.66,73,25,16.2
219,Broome,US,2021-03-28 19:47:54,42.2506,-75.833,59.0,94,90,11.5
220,Hamilton,US,2021-03-28 19:46:55,39.1834,-84.5333,46.99,67,100,5.99
221,Ilam,NP,2021-03-28 19:47:54,26.9167,87.9167,61.93,19,0,7.52
222,Lasa,IT,2021-03-28 19:44:53,46.6166,10.7002,59.0,56,0,3.44
223,Acheng,CN,2021-03-28 19:47:55,45.5454,126.977,39.0,80,0,8.95
224,Nishihara,JP,2021-03-28 19:47:55,26.1842,127.7558,71.6,94,75,3.44
225,Huarmey,PE,2021-03-28 19:47:55,-10.0681,-78.1522,75.36,73,100,9.66
226,Airai,TL,2021-03-28 19:47:56,-8.9266,125.4092,60.28,95,100,2.35
227,Oksfjord,NO,2021-03-28 19:47:56,70.2396,22.3479,32.0,86,20,8.97
228,Alice Springs,AU,2021-03-28 19:44:58,-23.7,133.8833,64.4,77,3,4.61
229,Shetpe,KZ,2021-03-28 19:47:56,44.1667,52.1167,41.79,71,100,13.06
230,Luganville,VU,2021-03-28 19:47:57,-15.5333,167.1667,80.51,84,42,9.19
231,Yankton,US,2021-03-28 19:47:57,42.8711,-97.3973,55.99,46,1,10.36
232,Pervomayskoye,RU,2021-03-28 19:43:47,43.919,46.7102,44.08,73,99,7.63
233,Epe,NG,2021-03-28 19:47:57,6.5841,3.9834,80.69,83,0,6.82
234,Lensk,RU,2021-03-28 19:47:57,60.7253,114.9278,6.44,98,76,3.2
235,Surt,LY,2021-03-28 19:47:58,31.2089,16.5887,61.05,62,78,13.31
236,Sanok,PL,2021-03-28 19:47:58,49.5557,22.2056,35.01,100,38,3.0
237,Vostok,RU,2021-03-28 19:47:35,46.4856,135.8833,32.99,86,100,8.57
238,Gimli,CA,2021-03-28 19:47:59,50.6336,-96.9907,33.8,55,100,14.97
239,Atasu,KZ,2021-03-28 19:47:59,48.6814,71.6433,27.91,92,100,8.43
240,Podporozhye,RU,2021-03-28 19:47:59,60.9112,34.1706,36.68,95,100,7.92
241,Bilma,NE,2021-03-28 19:47:59,18.6853,12.9164,73.94,13,0,8.32
242,Atambua,ID,2021-03-28 19:48:00,-9.1061,124.8925,73.18,90,100,4.63
243,Palana,RU,2021-03-28 19:48:00,59.1167,159.9667,6.24,92,100,12.03
244,Saldanha,ZA,2021-03-28 19:48:00,-33.0117,17.9442,68.0,49,100,5.75
245,Tuatapere,NZ,2021-03-28 19:48:00,-46.1333,167.6833,53.01,99,96,1.01
246,Berdigestyakh,RU,2021-03-28 19:48:01,62.0989,126.6992,-5.1,100,100,2.48
247,Codrington,AU,2021-03-28 19:48:01,-38.2667,141.9667,58.37,76,100,7.18
248,Sitka,US,2021-03-28 19:47:07,57.0531,-135.33,37.4,65,40,13.8
249,Voh,NC,2021-03-28 19:48:01,-20.9667,164.7,76.62,84,14,3.67
250,Bumba,CD,2021-03-28 19:48:02,2.1833,22.4667,77.11,63,10,1.74
251,Russkaya Polyana,UA,2021-03-28 19:48:02,49.417,31.9201,46.33,61,80,8.84
252,Narasannapeta,IN,2021-03-28 19:48:02,18.4167,84.05,77.09,90,1,4.92
253,Ginir,ET,2021-03-28 19:48:02,7.1333,40.7,63.61,37,99,5.23
254,Castro,BR,2021-03-28 19:48:03,-24.7911,-50.0119,71.64,84,100,6.31
255,San Luis Obispo,US,2021-03-28 19:48:03,35.3666,-120.5343,75.2,38,1,3.44
256,Vanavara,RU,2021-03-28 19:48:03,60.34,102.2797,8.2,99,100,1.74
257,Pisz,PL,2021-03-28 19:48:04,53.6274,21.8125,32.0,86,0,4.61
258,Aguimes,ES,2021-03-28 19:48:04,27.9054,-15.4461,70.0,68,20,6.91
259,Cullman,US,2021-03-28 19:48:04,34.1748,-86.8436,63.0,33,1,6.91
260,Marawi,PH,2021-03-28 19:47:46,7.9986,124.2928,75.99,91,93,4.0
261,Malatya,TR,2021-03-28 19:44:34,38.5,38.0,32.0,80,0,6.91
262,Cabo San Lucas,MX,2021-03-28 19:47:45,22.8909,-109.9124,81.0,35,75,8.05
263,Flinders,AU,2021-03-28 19:48:05,-34.5833,150.8552,57.0,87,8,1.01
264,Pangnirtung,CA,2021-03-28 19:48:05,66.1451,-65.7125,5.0,51,90,3.44
265,Rizhao,CN,2021-03-28 19:48:05,35.4275,119.4553,50.16,35,46,3.49
266,Maldonado,UY,2021-03-28 19:48:05,-34.6667,-54.9167,69.8,83,75,10.36
267,Lubbock,US,2021-03-28 19:48:06,33.6001,-101.8338,66.0,24,1,8.05
268,Inta,RU,2021-03-28 19:48:06,66.0317,60.1659,-1.44,99,66,4.16
269,Chapais,CA,2021-03-28 19:48:06,49.7834,-74.8492,30.2,93,90,9.22
270,Bataipora,BR,2021-03-28 19:48:06,-22.2953,-53.2711,91.31,36,65,7.09
271,Mocajuba,BR,2021-03-28 19:48:07,-2.5842,-49.5072,79.79,89,82,1.79
272,Mitzic,GA,2021-03-28 19:48:07,0.7821,11.549,70.21,94,39,0.81
273,Yellowknife,CA,2021-03-28 19:46:02,62.456,-114.3525,25.0,42,75,17.27
274,Bayan,CN,2021-03-28 19:43:55,46.0833,127.4,41.0,60,100,6.42
275,Beian,NO,2021-03-28 19:48:07,63.6559,9.5683,42.8,87,75,4.61
276,Vardo,NO,2021-03-28 19:48:08,70.3705,31.1107,32.0,80,20,12.66
277,Iqaluit,CA,2021-03-28 19:47:41,63.7506,-68.5145,14.0,73,75,13.8
278,Tessalit,ML,2021-03-28 19:47:37,20.1986,1.0114,76.44,8,0,11.74
279,Nhulunbuy,AU,2021-03-28 19:48:08,-12.2333,136.7667,80.6,89,40,13.8
280,Nago,JP,2021-03-28 19:48:08,26.5881,127.9761,71.6,94,90,1.54
281,Serenje,ZM,2021-03-28 19:48:09,-13.2325,30.2352,62.56,96,100,8.52
282,Novoagansk,RU,2021-03-28 19:48:09,61.9449,76.6625,-1.16,99,75,5.64
283,Tabory,RU,2021-03-28 19:48:09,58.5198,64.5495,27.84,95,91,7.4
284,Udachnyy,RU,2021-03-28 19:48:09,66.4167,112.4,11.39,96,100,4.92
285,Nouadhibou,MR,2021-03-28 19:48:10,20.931,-17.0347,68.0,73,0,20.71
286,Ambatofinandrahana,MG,2021-03-28 19:48:10,-20.55,46.8,59.25,93,0,1.72
287,Aripuana,BR,2021-03-28 19:43:26,-9.1667,-60.6333,81.14,88,96,1.07
288,Prince Rupert,CA,2021-03-28 19:45:11,54.3161,-130.3201,39.2,75,90,8.05
289,Cidreira,BR,2021-03-28 19:46:59,-30.1811,-50.2056,78.3,72,38,4.27
290,Brae,GB,2021-03-28 19:48:10,60.3964,-1.353,44.6,81,40,20.71
291,Charters Towers,AU,2021-03-28 19:48:11,-20.1,146.2667,68.94,84,32,4.74
292,Taltal,CL,2021-03-28 19:43:39,-25.4,-70.4833,67.37,68,23,4.92
293,Namatanai,PG,2021-03-28 19:48:11,-3.6667,152.4333,78.8,80,78,8.37
294,Atkinson,US,2021-03-28 19:44:14,42.8384,-71.147,45.0,93,90,12.66
295,Yatou,CN,2021-03-28 19:48:12,37.15,122.3833,45.55,52,94,8.05
296,Sabla,NG,2021-03-28 19:48:12,12.7525,4.7077,81.84,12,0,10.09
297,Vila Velha,BR,2021-03-28 19:46:23,-20.3297,-40.2925,82.4,65,40,6.91
298,Semnan,IR,2021-03-28 19:48:12,35.5729,53.3971,46.76,25,0,3.38
299,Los Llanos De Aridane,ES,2021-03-28 19:47:45,28.6585,-17.9182,66.2,72,20,8.05
300,Lamar,US,2021-03-28 19:48:12,33.6668,-95.5836,68.0,30,1,17.27
301,Mercedes,AR,2021-03-28 19:48:13,-34.6515,-59.4307,72.0,76,87,10.2
302,Salalah,OM,2021-03-28 19:48:13,17.0151,54.0924,80.6,61,0,3.44
303,Dwarka,IN,2021-03-28 19:44:12,22.2394,68.9678,78.58,75,33,12.59
304,Anshun,CN,2021-03-28 19:48:13,26.25,105.9333,58.55,97,37,5.06
305,Hokitika,NZ,2021-03-28 19:48:14,-42.7167,170.9667,58.84,93,64,3.18
306,Grand Gaube,MU,2021-03-28 19:48:14,-20.0064,57.6608,78.01,79,1,2.24
307,Abu Kamal,SY,2021-03-28 19:48:14,34.4506,40.9171,56.07,23,0,6.17
308,Guerrero Negro,MX,2021-03-28 19:48:15,27.9769,-114.0611,82.04,18,26,8.41
309,Yenagoa,NG,2021-03-28 19:48:15,4.9247,6.2642,79.75,78,2,5.19
310,Bethel,US,2021-03-28 19:48:15,41.3712,-73.414,53.01,97,100,11.43
311,Weyburn,CA,2021-03-28 19:48:15,49.6668,-103.8511,57.2,30,56,10.36
312,Scarisoara,RO,2021-03-28 19:48:16,44.0,24.5667,53.6,54,75,11.5
313,Luba,GQ,2021-03-28 19:48:16,3.4568,8.5547,82.4,83,20,9.22
314,Djambala,CG,2021-03-28 19:48:16,-2.5447,14.7533,72.21,83,100,2.26
315,Santa Leopoldina,BR,2021-03-28 19:48:17,-20.1006,-40.5297,82.4,65,40,6.91
316,Gravdal,NO,2021-03-28 19:48:17,68.1214,13.5031,39.2,56,0,14.97
317,Ketchikan,US,2021-03-28 19:46:51,55.3422,-131.6461,39.2,81,90,10.36
318,Campo Verde,BR,2021-03-28 19:48:17,-20.4167,-54.0667,89.6,35,40,9.22
319,Grindavik,IS,2021-03-28 19:48:17,63.8424,-22.4338,32.0,86,75,3.44
320,Tabou,CI,2021-03-28 19:48:18,4.423,-7.3528,79.39,84,45,6.15
321,Trairi,BR,2021-03-28 19:48:18,-3.2778,-39.2689,80.24,78,11,4.63
322,Havre-Saint-Pierre,CA,2021-03-28 19:48:18,50.2334,-63.5986,30.2,59,20,11.5
323,Rivadavia,AR,2021-03-28 19:48:19,-33.1905,-68.4608,77.0,23,0,9.22
324,Marquette,US,2021-03-28 19:48:19,46.5333,-87.6335,28.99,76,83,10.0
325,Langxiang,CN,2021-03-28 19:48:19,46.95,128.8833,34.95,99,100,0.89
326,Genc,TR,2021-03-28 19:48:19,38.7507,40.5603,33.53,67,0,5.61
327,Athens,GR,2021-03-28 19:48:20,37.9795,23.7162,57.0,76,20,2.66
328,Hualmay,PE,2021-03-28 19:48:20,-11.0964,-77.6139,74.35,74,68,9.71
329,Magnor,SE,2021-03-28 19:48:20,59.9511,12.1996,41.0,87,90,6.91
330,Nelson Bay,AU,2021-03-28 19:44:43,-32.7167,152.15,63.0,100,40,4.61
331,Bereda,ES,2021-03-28 19:47:09,43.2686,-7.5406,48.99,89,0,1.99
332,Fortuna Foothills,US,2021-03-28 19:48:21,32.6578,-114.4119,84.99,12,1,11.5
333,Tazovskiy,RU,2021-03-28 19:48:21,67.4667,78.7,-12.14,99,34,8.46
334,Cerro Largo,BR,2021-03-28 19:48:21,-28.1486,-54.7381,77.0,78,75,6.91
335,Narsaq,GL,2021-03-28 19:48:21,60.9167,-46.05,24.8,58,0,6.91
336,Storforshei,NO,2021-03-28 19:48:22,66.4043,14.5233,41.0,65,20,5.75
337,Egvekinot,RU,2021-03-28 19:48:22,66.3167,-179.1667,7.83,92,100,13.31
338,Asau,RO,2021-03-28 19:48:22,46.4333,26.4,37.0,60,97,2.75
339,Morshansk,RU,2021-03-28 19:48:22,53.4435,41.8107,28.06,97,81,3.94
340,Zholymbet,KZ,2021-03-28 19:48:23,51.7433,71.7122,16.38,90,82,16.02
341,Jumla,NP,2021-03-28 19:48:23,29.2747,82.1838,45.39,60,27,3.53
342,Pacocha,PE,2021-03-28 19:48:23,-17.5833,-71.3333,71.73,77,100,6.08
343,Margate,GB,2021-03-28 19:48:24,51.3813,1.3862,50.0,70,88,5.01
344,Belen,TR,2021-03-28 19:48:24,36.4891,36.2233,51.8,50,0,10.36
345,Ginda,IN,2021-03-28 19:48:24,30.6945,78.4932,56.93,37,50,7.31
346,Beira,MZ,2021-03-28 19:47:50,-19.8436,34.8389,82.4,74,40,16.11
347,Spalding,US,2021-03-28 19:48:25,33.2668,-84.2833,66.2,94,90,9.22
348,Harper,LR,2021-03-28 19:48:25,4.375,-7.7169,79.27,84,25,6.06
349,Puerto Quijarro,BO,2021-03-28 19:48:25,-17.7833,-57.7667,92.61,37,9,7.25
350,Pacasmayo,PE,2021-03-28 19:48:25,-7.4006,-79.5714,76.19,68,25,11.5
351,Kalangala,UG,2021-03-28 19:48:26,-0.3089,32.225,75.2,73,20,6.91
352,Luwuk,ID,2021-03-28 19:48:26,-0.9516,122.7875,77.2,90,100,5.7
353,Pulaski,US,2021-03-28 19:48:26,34.7668,-92.3001,66.0,24,20,18.41
354,Weiser,US,2021-03-28 19:48:26,44.251,-116.9693,62.6,34,1,3.44
355,Ormara,PK,2021-03-28 19:48:27,25.2088,64.6357,78.22,81,24,10.29
356,Deputatskiy,RU,2021-03-28 19:48:27,69.3,139.9,0.25,96,100,3.78
357,Nowy Sacz,PL,2021-03-28 19:48:27,49.6218,20.6971,39.0,77,21,3.91
358,Santa Maria,BR,2021-03-28 19:48:28,-29.6842,-53.8069,72.45,73,83,9.48
359,Touros,BR,2021-03-28 19:48:28,-5.1989,-35.4608,86.0,66,40,12.66
360,Lompoc,US,2021-03-28 19:48:15,34.6391,-120.4579,77.0,43,0,6.91
361,Hinton,CA,2021-03-28 19:48:28,53.4001,-117.5857,44.6,49,90,9.22
362,Gorom-Gorom,BF,2021-03-28 19:48:28,14.4439,-0.2361,82.54,7,0,10.98
363,Morondava,MG,2021-03-28 19:48:29,-20.2833,44.2833,78.31,77,0,9.46
364,Tondano,ID,2021-03-28 19:48:29,1.3038,124.9112,77.0,94,40,2.3
365,Bat Yam,IL,2021-03-28 19:48:29,32.0231,34.7503,57.2,62,20,3.44
366,Yuxia,CN,2021-03-28 19:48:30,34.0615,108.6291,62.01,41,100,3.71
367,Mariel,CU,2021-03-28 19:48:30,22.9875,-82.7536,86.0,58,40,8.05
368,Phan Thiet,VN,2021-03-28 19:48:30,10.9333,108.1,74.5,91,65,5.46
369,Klaksvik,FO,2021-03-28 19:48:30,62.2266,-6.589,41.0,87,75,16.11
370,Tommot,RU,2021-03-28 19:48:31,58.9564,126.2925,14.04,96,100,1.72
371,Palmer,US,2021-03-28 19:48:31,42.1584,-72.3287,53.01,100,90,3.44
372,Smirnykh,RU,2021-03-28 19:48:31,49.75,142.8333,27.27,99,100,0.92
373,Abrau-Dyurso,RU,2021-03-28 19:48:32,44.69,37.59,41.0,81,8,8.95
374,Krasnyy Yar,RU,2021-03-28 19:48:32,46.5331,48.3456,39.2,81,0,13.42
375,Timra,SE,2021-03-28 19:48:32,62.487,17.3257,36.0,93,90,4.61
376,Raga,SS,2021-03-28 19:48:32,8.4596,25.678,78.28,18,5,4.12
377,Luderitz,NA,2021-03-28 19:48:33,-26.6481,15.1594,62.83,84,1,5.28
378,Pingliang,CN,2021-03-28 19:48:33,35.5392,106.6861,46.92,37,100,1.79
379,Kharp,RU,2021-03-28 19:48:33,66.8014,65.8081,-3.82,98,74,4.25
380,Mpika,ZM,2021-03-28 19:48:33,-11.8343,31.4529,61.54,98,100,4.5
381,Kahului,US,2021-03-28 19:47:48,20.8947,-156.47,75.2,64,40,20.71
382,Lavrentiya,RU,2021-03-28 19:48:03,65.5833,-171.0,9.19,94,100,20.04
383,Mackay,AU,2021-03-28 19:48:34,-21.15,149.2,69.8,88,75,5.75
384,Ilulissat,GL,2021-03-28 19:47:10,69.2167,-51.1,-5.8,41,0,2.3
385,Emmett,US,2021-03-28 19:48:34,43.8735,-116.4993,71.01,23,19,1.99
386,Haicheng,CN,2021-03-28 19:48:35,40.8516,122.7475,44.62,28,0,11.72
387,Bengkulu,ID,2021-03-28 19:48:35,-3.8004,102.2655,77.27,90,100,4.12
388,Fredericksburg,US,2021-03-28 19:48:28,38.3032,-77.4605,73.99,60,75,19.57
389,Yunyang,CN,2021-03-28 19:48:35,33.4474,112.7142,59.47,82,0,2.68
390,East London,ZA,2021-03-28 19:48:35,-33.0153,27.9116,66.16,73,100,11.95
391,Atbasar,KZ,2021-03-28 19:48:36,51.8,68.3333,15.01,93,18,11.99
392,Sangre Grande,TT,2021-03-28 19:48:36,10.5835,-61.1177,82.4,74,40,11.5
393,Khorramshahr,IR,2021-03-28 19:48:36,30.4397,48.1664,64.4,34,0,11.5
394,San Francisco,US,2021-03-28 19:48:37,37.7749,-122.4194,70.0,52,1,6.91
395,Okhotsk,RU,2021-03-28 19:48:37,59.3833,143.3,-3.23,97,55,6.31
396,Merrill,US,2021-03-28 19:48:37,45.1805,-89.6835,33.01,59,90,14.97
397,Saint-Pierre,RE,2021-03-28 19:47:09,-21.3393,55.4781,78.8,78,0,6.91
398,Kodiak,US,2021-03-28 19:48:38,57.79,-152.4072,37.4,41,75,4.61
399,Den Helder,NL,2021-03-28 19:48:38,52.9599,4.7593,46.99,87,90,23.02
400,Luau,AO,2021-03-28 19:48:38,-10.7073,22.2247,65.28,97,100,0.96
401,Sao Joao Da Barra,BR,2021-03-28 19:48:38,-21.6403,-41.0511,86.0,66,20,6.91
402,College,US,2021-03-28 19:48:39,64.8569,-147.8028,10.99,61,40,5.75
403,Odesskoye,RU,2021-03-28 19:48:39,54.2111,72.9651,23.85,93,100,16.69
404,La Sarre,CA,2021-03-28 19:48:39,48.8002,-79.1996,32.58,98,100,12.5
405,Svetlyy,RU,2021-03-28 19:45:03,54.675,20.1347,42.8,70,0,8.95
406,San Jose,US,2021-03-28 19:46:58,37.3394,-121.895,78.01,37,1,4.61
407,La Romana,DO,2021-03-28 19:48:40,18.4273,-68.9728,84.2,61,40,6.91
408,Cartagena,CO,2021-03-28 19:48:40,10.3997,-75.5144,89.6,55,20,12.66
409,Bezhanitsy,RU,2021-03-28 19:48:40,56.9767,29.8907,39.56,93,100,1.54
410,West Wendover,US,2021-03-28 19:43:59,40.7391,-114.0733,53.6,37,1,8.05
411,Seydi,TM,2021-03-28 19:48:41,39.4816,62.9137,46.81,42,2,14.88
412,Evensk,RU,2021-03-28 19:48:41,61.95,159.2333,-10.03,90,98,4.32
413,Kruisfontein,ZA,2021-03-28 19:48:41,-34.0033,24.7314,64.0,73,100,4.0
414,Manzanillo,CU,2021-03-28 19:48:41,20.3433,-77.1167,90.37,38,40,14.23
415,Beloha,MG,2021-03-28 19:48:04,-25.1667,45.05,71.06,83,15,3.02
416,Mokhsogollokh,RU,2021-03-28 19:48:42,61.4681,128.9203,-2.99,99,100,1.88
417,Pisco,PE,2021-03-28 19:47:22,-13.7,-76.2167,77.0,57,0,16.11
418,Porto Novo,BJ,2021-03-28 19:48:42,6.4965,2.6036,82.4,74,20,9.22
419,Ekhabi,RU,2021-03-28 19:48:42,53.5102,142.9671,27.5,95,100,7.0
420,Tomatlan,MX,2021-03-28 19:48:43,19.9333,-105.25,85.82,37,8,10.13
421,Atar,MR,2021-03-28 19:48:43,20.5169,-13.0499,84.36,18,80,11.65
422,Mabaruma,GY,2021-03-28 19:48:43,8.2,-59.7833,77.43,95,93,5.84
423,Deder,ET,2021-03-28 19:48:44,9.3167,41.45,57.63,31,20,3.24
424,Conakry,GN,2021-03-28 19:48:44,9.538,-13.6773,82.4,78,59,9.22
425,Dingle,PH,2021-03-28 19:48:12,10.9995,122.6711,76.23,89,100,6.17
426,Waingapu,ID,2021-03-28 19:47:54,-9.6567,120.2641,78.84,83,100,6.2
427,Ingraj Bazar,IN,2021-03-28 19:44:16,25.0,88.15,76.59,17,0,3.71
428,Buraydah,SA,2021-03-28 19:48:44,26.326,43.975,62.6,29,0,8.05
429,Antofagasta,CL,2021-03-28 19:48:45,-23.65,-70.4,68.0,56,0,12.66
430,San Miguel,SV,2021-03-28 19:48:45,13.4833,-88.1833,100.4,22,0,2.3
431,Clyde River,CA,2021-03-28 19:48:45,70.4692,-68.5914,-4.0,84,20,10.36
432,Ahipara,NZ,2021-03-28 19:48:36,-35.1667,173.1667,67.14,92,60,6.62
433,Walvis Bay,NA,2021-03-28 19:48:45,-22.9575,14.5053,61.0,88,0,5.75
434,Orbetello,IT,2021-03-28 19:48:46,42.4408,11.2196,50.0,93,0,3.44
435,Samarai,PG,2021-03-28 19:48:46,-10.6167,150.6667,82.06,79,92,10.94
436,Goldap,PL,2021-03-28 19:48:46,54.3063,22.3036,37.38,79,100,6.2
437,Te Anau,NZ,2021-03-28 19:48:47,-45.4167,167.7167,55.26,93,97,2.46
438,Carora,VE,2021-03-28 19:48:47,10.1755,-70.0827,87.76,41,100,14.03
439,Portobelo,PA,2021-03-28 19:48:47,9.55,-79.65,86.0,99,46,5.99
440,Pitimbu,BR,2021-03-28 19:48:47,-7.4706,-34.8086,84.2,70,75,9.22
441,Alakurtti,RU,2021-03-28 19:47:47,66.9672,30.3491,37.0,91,99,3.76
442,Rocha,UY,2021-03-28 19:47:56,-34.4833,-54.3333,67.23,88,85,5.5
443,Sobolevo,RU,2021-03-28 19:48:48,54.4299,31.8996,35.46,94,98,7.31
444,Lere,NG,2021-03-28 19:48:48,10.387,8.5726,79.95,16,0,9.6
445,Port Hardy,CA,2021-03-28 19:45:11,50.6996,-127.4199,42.8,81,75,8.05
446,Baherden,TM,2021-03-28 19:48:48,38.4362,57.4316,46.99,60,11,6.44
447,Caernarfon,GB,2021-03-28 19:48:49,53.1413,-4.2702,51.8,87,90,27.63
448,Goderich,CA,2021-03-28 19:45:11,43.7501,-81.7165,37.4,93,100,12.66
449,Adrar,MR,2021-03-28 19:47:52,20.5022,-10.0711,84.99,7,100,7.02
450,Alihe,CN,2021-03-28 19:48:49,50.5667,123.7167,33.76,99,100,4.21
451,Half Moon Bay,US,2021-03-28 19:48:49,37.4636,-122.4286,72.0,93,1,11.5
452,Pontypool,GB,2021-03-28 19:48:50,51.7011,-3.0444,52.0,81,99,8.99
453,Baoqing,CN,2021-03-28 19:48:50,46.3317,132.2111,38.16,97,100,8.61
454,Valdivia,CL,2021-03-28 19:45:26,-39.8142,-73.2459,73.4,49,0,5.75
455,Hopewell,US,2021-03-28 19:48:50,37.3043,-77.2872,77.0,61,100,15.01
456,Teguldet,RU,2021-03-28 19:48:51,57.3064,88.1667,30.51,98,100,4.21
457,Correntina,BR,2021-03-28 19:48:51,-13.3433,-44.6367,91.35,23,11,1.83
458,Gladstone,AU,2021-03-28 19:48:51,-23.85,151.25,69.8,88,12,5.75
459,Chara,RU,2021-03-28 19:48:52,56.9064,118.2631,9.57,82,100,2.33
460,Belaya Gora,RU,2021-03-28 19:48:52,68.5333,146.4167,-13.79,100,78,3.78
461,Praia Da Vitoria,PT,2021-03-28 19:48:52,38.7333,-27.0667,62.6,72,40,15.46
462,Bambanglipuro,ID,2021-03-28 19:48:52,-7.95,110.2833,76.48,89,48,2.44
463,Rosendal,NO,2021-03-28 19:48:53,59.9867,6.0135,44.01,87,75,10.36
464,Sept-Iles,CA,2021-03-28 19:48:53,50.2001,-66.3821,30.0,74,90,17.27
465,Northam,GB,2021-03-28 19:48:53,51.0333,-4.2167,52.0,91,29,17.0
466,Raudeberg,NO,2021-03-28 19:48:54,61.9875,5.1352,44.01,80,98,26.35
467,Opuwo,NA,2021-03-28 19:48:54,-18.0607,13.84,76.32,50,94,2.68
468,Massakory,TD,2021-03-28 19:48:54,12.996,15.7293,82.98,13,0,18.75
469,Ola,RU,2021-03-28 19:48:54,59.5833,151.2833,-1.77,98,80,5.75
470,Lyuban,BY,2021-03-28 19:48:55,52.7985,28.0048,38.21,91,100,4.94
471,Nanga Eboko,CM,2021-03-28 19:48:55,4.6833,12.3667,73.65,68,59,2.26
472,Kungurtug,RU,2021-03-28 19:48:55,50.5994,97.5228,22.5,84,100,1.32
473,Longyearbyen,SJ,2021-03-28 19:48:56,78.2186,15.6401,32.0,74,20,2.3
474,Yei,SS,2021-03-28 19:47:24,4.095,30.6779,70.11,78,49,3.71
475,Alyangula,AU,2021-03-28 19:48:56,-13.8483,136.4192,81.66,78,81,13.38
476,Baisha,CN,2021-03-28 19:48:56,26.5222,110.9311,68.34,93,9,2.57
477,Manasa,IN,2021-03-28 19:48:57,24.4837,75.2687,80.65,15,3,8.7
478,Ngaoundere,CM,2021-03-28 19:48:57,7.3167,13.5833,73.33,24,42,4.47
479,Nguruka,TZ,2021-03-28 19:48:57,-5.1092,31.0419,67.08,85,98,1.86
480,Ambon,ID,2021-03-28 19:48:52,-3.6954,128.1814,75.2,94,40,6.91
481,Mandal,IN,2021-03-28 19:48:57,25.45,74.5667,80.73,14,5,9.78
482,Mecca,SA,2021-03-28 19:48:58,21.4267,39.8261,74.32,59,0,7.31
483,Great Yarmouth,GB,2021-03-28 19:48:58,52.6083,1.7305,53.6,76,40,14.97
484,Tarakan,ID,2021-03-28 19:44:19,3.3,117.6333,79.27,80,100,4.41
485,San Juan,AR,2021-03-28 19:48:58,-31.5375,-68.5364,79.54,16,0,5.1
486,Buala,SB,2021-03-28 19:47:15,-8.145,159.5921,80.64,81,15,7.58
487,Saquena,PE,2021-03-28 19:48:59,-4.6667,-73.5167,80.29,88,79,2.3
488,Lima,PE,2021-03-28 19:48:05,-12.0432,-77.0282,77.0,64,0,9.22
489,Canyon,US,2021-03-28 19:44:44,34.9803,-101.9188,64.99,28,0,8.01
490,Bodo,NO,2021-03-28 19:48:59,67.28,14.405,42.8,56,40,19.57
491,Matamoros,MX,2021-03-28 19:48:59,25.5333,-103.25,73.99,18,75,9.22
492,Kirakira,SB,2021-03-28 19:49:00,-10.4544,161.9205,79.38,83,71,6.13
493,Coswig,DE,2021-03-28 19:49:00,51.1333,13.5833,50.0,53,40,8.05
494,Benjamin Hill,MX,2021-03-28 19:49:00,30.1667,-111.1,88.0,10,0,8.01
495,Gat,IL,2021-03-28 19:44:04,31.61,34.7642,57.0,1,1,5.03
496,Boende,CD,2021-03-28 19:49:01,-0.2167,20.8667,74.98,80,99,1.59
497,Choix,MX,2021-03-28 19:49:01,26.7092,-108.3219,96.91,5,6,1.68
498,Yinchuan,CN,2021-03-28 19:49:01,38.4681,106.2731,45.0,12,1,7.27
499,Moissala,TD,2021-03-28 19:49:02,8.3404,17.7663,89.01,21,95,4.5
500,Plettenberg Bay,ZA,2021-03-28 19:49:02,-34.0527,23.3716,62.71,81,100,9.31
501,Tamandare,BR,2021-03-28 19:49:02,-8.7597,-35.1047,80.15,77,95,6.24
502,Lebowakgomo,ZA,2021-03-28 19:49:02,-24.2,29.5,60.8,94,75,10.36
503,Naifaru,MV,2021-03-28 19:48:57,5.4444,73.3657,84.02,70,80,10.89
504,Orcopampa,PE,2021-03-28 19:49:03,-15.2661,-72.3417,54.81,65,47,7.74
505,Punta Alta,AR,2021-03-28 19:45:27,-38.8759,-62.0736,68.9,48,1,8.59
506,Dunedin,NZ,2021-03-28 19:49:03,-45.8742,170.5036,55.99,92,41,1.99
507,Huanren,CN,2021-03-28 19:49:03,41.2647,125.3667,36.48,64,6,4.63
508,Akdepe,TM,2021-03-28 19:44:49,42.0551,59.3788,44.6,70,0,6.91
509,Kem,RU,2021-03-28 19:49:04,64.9555,34.5793,38.37,89,99,11.12
510,Kaeo,NZ,2021-03-28 19:49:04,-35.1,173.7833,64.99,96,100,7.0
511,Tucumcari,US,2021-03-28 19:49:04,35.1717,-103.725,64.4,27,1,20.71
512,Kapit,MY,2021-03-28 19:49:05,2.0167,112.9333,73.51,99,100,0.56
513,Muisne,EC,2021-03-28 19:48:56,0.6,-80.0333,84.2,84,75,6.91
514,Constancia,MX,2021-03-28 19:49:05,24.2231,-107.1869,86.0,61,100,7.0
515,Alofi,NU,2021-03-28 19:49:05,-19.0595,-169.9187,80.6,89,3,12.66
516,Luyang,CN,2021-03-28 19:49:06,27.6239,110.0989,66.2,90,100,2.08
517,Birjand,IR,2021-03-28 19:49:06,32.8663,59.2211,51.8,24,0,13.8
518,Harrogate,GB,2021-03-28 19:49:06,53.9908,-1.5373,55.4,76,75,24.16
519,Alpena,US,2021-03-28 19:49:06,45.0617,-83.4327,35.6,87,90,18.41
520,Poum,NC,2021-03-28 19:48:22,-20.2333,164.0167,79.32,79,10,8.25
521,Mandera,KE,2021-03-28 19:49:07,3.9366,41.867,90.59,26,100,0.78
522,Bukene,TZ,2021-03-28 19:49:07,-4.2333,32.8833,67.32,73,18,2.48
523,Solone,UA,2021-03-28 19:49:07,48.2081,34.8721,42.8,70,0,6.71
524,Katghora,IN,2021-03-28 19:49:08,22.5,82.55,73.51,20,0,2.95
525,Saurimo,AO,2021-03-28 19:48:22,-9.6608,20.3916,66.47,94,100,3.09
526,Thinadhoo,MV,2021-03-28 19:49:08,0.5333,72.9333,77.74,91,100,14.58
527,Guayaramerin,BO,2021-03-28 19:49:08,-10.8368,-65.3614,87.8,58,40,2.3
528,Awbari,LY,2021-03-28 19:49:09,26.5921,12.7805,62.2,19,0,9.13
529,Tecoanapa,MX,2021-03-28 19:49:09,16.5167,-98.75,85.59,48,0,11.12
530,Belomorsk,RU,2021-03-28 19:49:09,64.5232,34.7668,36.36,96,93,9.91
531,Alugan,PH,2021-03-28 19:49:10,12.2188,125.4808,79.45,84,100,8.95
532,Kaabong,UG,2021-03-28 19:49:10,3.4836,34.1492,69.93,46,60,5.91
533,Oktyabrskiy,RU,2021-03-28 19:47:44,54.4815,53.471,16.84,97,100,3.51
534,Baruun-Urt,MN,2021-03-28 19:47:01,46.6806,113.2792,25.25,50,1,6.04
535,Muli,MV,2021-03-28 19:49:10,2.9167,73.5667,81.57,77,98,10.96
536,Macherla,IN,2021-03-28 19:49:11,16.4833,79.4333,80.6,54,2,7.9
537,Yumen,CN,2021-03-28 19:49:11,40.2833,97.2,45.63,48,31,10.36
538,Pacific Grove,US,2021-03-28 19:49:11,36.6177,-121.9166,60.8,59,1,5.75
539,Olga,RU,2021-03-28 19:49:12,43.7444,135.2892,35.28,96,100,11.1
540,Olafsvik,IS,2021-03-28 19:46:56,64.8945,-23.7142,26.65,84,100,19.01
541,Santa Fe,AR,2021-03-28 19:48:10,-31.6333,-60.7,70.0,70,92,3.0
542,Evanston,US,2021-03-28 19:49:12,42.0411,-87.6901,46.99,34,40,25.32
543,Port Hedland,AU,2021-03-28 19:49:12,-20.3167,118.5667,82.4,61,13,6.91
544,Houma,US,2021-03-28 19:44:54,29.5958,-90.7195,73.4,88,90,11.5
545,Kaoma,ZM,2021-03-28 19:49:13,-14.7833,24.8,64.81,86,89,4.99
546,Paamiut,GL,2021-03-28 19:49:13,61.994,-49.6678,16.2,67,0,20.04
547,Hampton,US,2021-03-28 19:45:01,37.0299,-76.3452,82.0,61,20,24.16
548,Sabzevar,IR,2021-03-28 19:49:13,36.2126,57.6819,41.52,47,0,10.67
549,Necochea,AR,2021-03-28 19:49:14,-38.5473,-58.7368,69.01,77,26,3.0
550,Mogadishu,SO,2021-03-28 19:49:14,2.0371,45.3438,80.51,86,100,18.54
551,Gisborne,NZ,2021-03-28 19:47:18,-38.6533,178.0042,61.0,92,73,1.01
552,Hefei,CN,2021-03-28 19:49:14,31.8639,117.2808,61.0,88,0,4.47
553,Tenno,JP,2021-03-28 19:49:04,39.9,139.9667,52.0,95,100,13.29
554,Yashkul,RU,2021-03-28 19:49:15,46.1711,45.3435,38.14,84,53,9.55
555,Laguna De Perlas,NI,2021-03-28 19:49:15,12.3429,-83.6712,84.2,70,40,6.91
556,Elbistan,TR,2021-03-28 19:49:15,38.2059,37.1983,33.33,65,0,0.47
557,Tambura,SS,2021-03-28 19:49:16,5.6,27.4667,80.1,41,72,1.79
558,Otane,NZ,2021-03-28 19:49:16,-39.8833,176.6333,64.99,86,100,1.99
559,Balkanabat,TM,2021-03-28 19:49:16,39.5108,54.3671,45.9,66,1,7.27
560,Kozhva,RU,2021-03-28 19:49:16,65.1073,57.0459,25.74,98,99,3.85
561,Lota,CL,2021-03-28 19:49:17,-37.0833,-73.1667,69.8,49,0,4.61
562,Henties Bay,NA,2021-03-28 19:49:17,-22.116,14.2845,61.0,90,0,5.99
563,Fredericton,CA,2021-03-28 19:47:14,45.9454,-66.6656,35.6,69,90,13.8
564,Vadso,NO,2021-03-28 19:49:17,70.0744,29.7487,37.4,74,20,6.91
565,Aswan,EG,2021-03-28 19:49:17,24.0934,32.907,68.16,18,0,16.87
566,Kuliyapitiya,LK,2021-03-28 19:45:40,7.4688,80.0401,75.2,94,75,5.75
567,Denpasar,ID,2021-03-28 19:46:26,-8.65,115.2167,77.0,94,40,2.3
568,Launceston,AU,2021-03-28 19:49:18,-41.45,147.1667,46.99,65,5,5.75
569,Natal,BR,2021-03-28 19:46:45,-5.795,-35.2094,86.0,66,40,10.36
570,Nanortalik,GL,2021-03-28 19:49:18,60.1432,-45.2371,26.08,66,2,8.25
571,Alice Town,BS,2021-03-28 19:47:35,25.7167,-79.3,78.26,64,6,6.69
572,Ust-Kan,RU,2021-03-28 19:49:19,50.9276,84.761,28.44,96,100,4.61
573,Tilichiki,RU,2021-03-28 19:49:19,60.4667,166.1,-6.86,91,13,6.69
574,Nkhotakota,MW,2021-03-28 19:49:19,-12.9274,34.2961,71.98,87,99,8.43
575,Marsh Harbour,BS,2021-03-28 19:44:25,26.5412,-77.0636,77.81,71,17,14.07
576,Thaton,MM,2021-03-28 19:49:20,16.9206,97.3714,79.18,71,6,1.81
577,Ixtapa,MX,2021-03-28 19:49:20,20.7,-105.2,77.0,57,40,11.5
578,Sabha,LY,2021-03-28 19:49:20,27.0377,14.4283,62.73,20,0,11.48
579,Yangjiang,CN,2021-03-28 19:49:20,21.85,111.9667,72.32,95,51,3.15
580,Kharitonovo,RU,2021-03-28 19:49:21,61.4009,47.4978,29.59,93,100,7.09
581,Maine-Soroa,NE,2021-03-28 19:49:21,13.2114,12.0241,76.91,17,0,11.21
582,Juneau,US,2021-03-28 19:49:21,58.3019,-134.4197,37.4,44,20,4.61
583,Porbandar,IN,2021-03-28 19:49:21,21.6422,69.6093,78.48,73,8,9.82
584,Doka,SD,2021-03-28 19:49:22,13.5167,35.7667,83.26,32,16,5.61
585,Chicama,PE,2021-03-28 19:49:22,-7.8447,-79.1469,73.4,78,0,10.36
586,Grants,US,2021-03-28 19:49:22,35.1473,-107.8514,57.2,23,1,4.61
587,Lesosibirsk,RU,2021-03-28 19:49:23,58.2358,92.4828,31.66,96,100,5.23
588,Bay Roberts,CA,2021-03-28 19:49:23,47.5999,-53.2648,30.0,65,97,1.99
589,Ambato,EC,2021-03-28 19:49:23,-1.2491,-78.6168,59.0,67,40,10.36
590,Marbella,ES,2021-03-28 19:49:23,36.5154,-4.8858,60.8,82,75,10.36
591,Boralday,KZ,2021-03-28 19:49:24,43.3578,76.8594,44.6,81,90,6.71
592,Cavan,IE,2021-03-28 19:49:24,53.9908,-7.3606,55.99,88,100,11.99
593,Tanah Merah,MY,2021-03-28 19:49:24,5.8,102.15,78.8,89,20,2.01
594,Matata,NZ,2021-03-28 19:49:25,-37.8833,176.75,63.0,98,100,9.84
595,Unai,BR,2021-03-28 19:49:25,-16.3575,-46.9061,85.26,51,1,2.89
596,Maneadero,MX,2021-03-28 19:48:18,31.7167,-116.5667,71.01,54,0,5.01
597,Gadwal,IN,2021-03-28 19:49:25,16.2333,77.8,83.03,32,47,4.76
598,Cuxhaven,DE,2021-03-28 19:49:26,53.8718,8.6909,46.99,93,90,12.66
599,Miri,MY,2021-03-28 19:49:26,4.4148,114.0089,77.0,100,40,2.3
600,Sao Gabriel Da Cachoeira,BR,2021-03-28 19:47:00,-0.1303,-67.0892,89.6,66,40,3.44
601,Amboasary,MG,2021-03-28 19:49:26,-25.0333,46.3833,73.4,94,20,1.83
602,Nadadores,MX,2021-03-28 19:49:27,27.05,-101.6,66.2,37,90,6.91
603,Oussouye,SN,2021-03-28 19:49:27,12.485,-16.5469,82.4,73,0,11.5
604,Yanam,IN,2021-03-28 19:49:27,16.7333,82.2167,74.34,93,4,1.77
605,Inongo,CD,2021-03-28 19:49:28,-1.95,18.2667,76.55,70,100,2.33
606,Esperanza,DO,2021-03-28 19:49:28,19.5847,-70.9849,84.99,62,19,10.0
607,Beringovskiy,RU,2021-03-28 19:49:28,63.05,179.3167,10.33,93,100,15.88
608,Bijie,CN,2021-03-28 19:49:28,27.3125,105.2942,57.88,94,88,4.41
609,Verkhoyansk,RU,2021-03-28 19:49:29,67.5447,133.385,-7.89,100,100,2.91
610,Maralal,KE,2021-03-28 19:49:29,1.0968,36.698,62.8,66,86,6.69
611,Tezu,IN,2021-03-28 19:49:29,27.9167,96.1667,70.68,21,1,4.61
612,Dakar,SN,2021-03-28 19:46:58,14.6937,-17.4441,68.0,77,0,16.11
613,Kuala Terengganu,MY,2021-03-28 19:49:30,5.3302,103.1408,77.0,94,20,3.44
614,Mangrol,IN,2021-03-28 19:49:30,21.1167,70.1167,77.63,78,3,11.21
615,Mitchell,US,2021-03-28 19:49:30,43.7094,-98.0298,51.8,43,1,13.8
616,Acajutla,SV,2021-03-28 19:49:31,13.5928,-89.8275,91.4,22,20,3.44
617,Teahupoo,PF,2021-03-28 19:49:31,-17.8333,-149.2667,86.0,62,20,3.44
618,Anadyr,RU,2021-03-28 19:49:31,64.75,177.4833,14.0,79,75,17.9
619,Wajir,KE,2021-03-28 19:49:31,1.7471,40.0573,90.34,34,100,7.38
620,Aktau,KZ,2021-03-28 19:49:32,43.65,51.2,42.8,93,40,8.95
621,Bossier City,US,2021-03-28 19:49:32,32.516,-93.7321,69.8,32,1,16.11
622,Tonantins,BR,2021-03-28 19:49:32,-2.8731,-67.8022,82.87,77,100,2.64
623,Ahuimanu,US,2021-03-28 19:45:09,21.4447,-157.8378,77.0,53,75,13.8
624,Ponta Delgada,PT,2021-03-28 19:49:33,37.7333,-25.6667,60.8,77,75,9.22
625,Biak,ID,2021-03-28 19:49:33,-0.9131,122.8766,75.87,89,100,8.03
626,Malinyi,TZ,2021-03-28 19:49:35,-8.9333,36.1333,70.92,92,36,2.84
627,Faya,SA,2021-03-28 19:49:35,18.3851,42.4509,64.4,72,0,1.45
628,Razdolnoye,RU,2021-03-28 19:49:36,43.55,131.9167,41.0,100,90,3.29
629,Bose,IT,2021-03-28 19:49:36,45.4612,8.0137,57.0,72,11,4.47
630,Olinda,BR,2021-03-28 19:48:59,-8.0089,-34.8553,80.6,69,40,6.91
631,Sioux Lookout,CA,2021-03-28 19:49:36,50.1001,-91.917,30.2,43,40,9.22
632,Boulder City,US,2021-03-28 19:49:37,35.9786,-114.8325,71.6,15,1,10.36
633,Mwinilunga,ZM,2021-03-28 19:47:29,-11.7358,24.4293,61.23,95,93,3.31
634,Lafiagi,NG,2021-03-28 19:49:37,8.8667,5.4167,88.43,18,2,1.92
635,Mamallapuram,IN,2021-03-28 19:49:37,12.6264,80.1722,80.6,89,20,3.44
636,Doctor Arroyo,MX,2021-03-28 19:49:38,23.6667,-100.1833,76.95,29,100,5.26
637,San Quintin,MX,2021-03-28 19:49:38,30.4833,-115.95,71.78,28,0,11.5
638,Bahia De Caraquez,EC,2021-03-28 19:49:38,-0.6,-80.4167,80.6,78,75,3.44
639,Sayyan,YE,2021-03-28 19:49:38,15.1718,44.3244,56.3,29,6,5.91
640,Eureka,US,2021-03-28 19:49:39,40.8021,-124.1637,52.0,93,90,6.87
641,La Rioja,ES,2021-03-28 19:48:47,42.25,-2.5,59.0,47,0,4.61
642,La Argentina,CO,2021-03-28 19:49:39,2.1961,-75.98,71.38,80,94,3.38
643,Magdagachi,RU,2021-03-28 19:49:39,53.45,125.8,29.37,94,100,7.65
644,Agadez,NE,2021-03-28 19:48:41,19.75,10.25,68.25,14,0,5.66
645,Knysna,ZA,2021-03-28 19:49:40,-34.0363,23.0471,59.0,94,0,6.91
646,Bowen,AU,2021-03-28 19:49:40,-20.0167,148.2333,69.8,94,11,6.91
647,Sibolga,ID,2021-03-28 19:48:45,1.7427,98.7792,76.37,89,98,2.66
648,Azare,NG,2021-03-28 19:49:40,11.6765,10.1948,79.45,16,0,13.13
649,Cabo Rojo,PR,2021-03-28 19:49:41,18.0866,-67.1457,84.0,86,73,3.0
650,Bereznik,RU,2021-03-28 19:49:41,62.8551,42.7072,31.86,84,83,6.64
651,Teya,RU,2021-03-28 19:49:41,60.3778,92.6267,15.6,99,100,0.29
652,Aljezur,PT,2021-03-28 19:49:41,37.3191,-8.8033,59.77,79,100,6.98
653,Champerico,GT,2021-03-28 19:49:42,14.3,-91.9167,91.4,62,75,9.22
654,Masterton,NZ,2021-03-28 19:49:42,-40.9597,175.6575,63.0,93,100,4.0
655,Srednekolymsk,RU,2021-03-28 19:49:42,67.45,153.6833,-12.73,99,100,4.76
656,Fallingbostel,DE,2021-03-28 19:49:43,52.8667,9.7,52.0,69,100,11.18
657,Callaway,US,2021-03-28 19:49:43,30.153,-85.5699,80.01,83,20,13.8
658,Zeya,RU,2021-03-28 19:49:43,53.75,127.2667,29.01,92,100,6.17
659,Yarada,IN,2021-03-28 19:49:43,17.65,83.2667,80.6,81,3,7.14
660,Solnechnyy,RU,2021-03-28 19:49:44,50.7214,136.6319,28.6,97,100,4.5
661,Nynashamn,SE,2021-03-28 19:49:44,58.9034,17.9479,43.0,84,100,4.0
662,Tokonou,GN,2021-03-28 19:49:44,9.65,-9.7833,87.67,35,77,5.53
663,Rupert,US,2021-03-28 19:49:44,42.6191,-113.6772,68.0,21,1,19.57
664,Kawai,JP,2021-03-28 19:49:45,34.2333,135.85,55.4,88,0,5.75
665,Prescott,US,2021-03-28 19:47:41,34.54,-112.4685,66.99,21,1,3.44
666,Cabedelo,BR,2021-03-28 19:49:45,-6.9811,-34.8339,84.2,70,75,9.22
667,Sulangan,PH,2021-03-28 19:49:45,11.1373,123.7228,81.39,78,100,11.32
668,Arlit,NE,2021-03-28 19:49:46,18.7369,7.3853,73.96,11,0,15.64
669,Estelle,US,2021-03-28 19:49:46,29.8458,-90.1067,73.0,78,90,10.36
670,Seversk,RU,2021-03-28 19:49:46,56.6006,84.8864,32.0,91,99,2.08
671,Bandarbeyla,SO,2021-03-28 19:48:48,9.4942,50.8122,78.62,73,9,6.35
672,Romitan,UZ,2021-03-28 19:49:47,39.9343,64.3814,44.6,81,75,9.22
673,Jiuquan,CN,2021-03-28 19:49:47,39.7432,98.5174,46.04,48,38,6.44
674,Dolores,AR,2021-03-28 19:49:47,-36.3132,-57.6792,68.95,83,100,11.43
675,Isiro,CD,2021-03-28 19:48:10,2.7739,27.616,75.74,54,84,4.43
676,Samfya,ZM,2021-03-28 19:47:12,-11.3649,29.5565,66.16,92,100,4.97
677,Puerto Carreno,CO,2021-03-28 19:49:48,6.189,-67.4859,89.98,45,100,6.31
678,Methoni,GR,2021-03-28 19:49:48,36.8197,21.7049,55.4,76,1,4.61
679,Ust-Nera,RU,2021-03-28 19:49:48,64.5667,143.2,-5.17,98,100,3.47
680,Linjiang,CN,2021-03-28 19:49:49,41.8069,126.9078,36.63,68,29,7.0
681,Sibenik,HR,2021-03-28 19:49:49,43.7272,15.9058,53.6,71,0,3.44
682,Muana,BR,2021-03-28 19:49:49,-1.5283,-49.2167,82.02,78,81,5.17
683,Chimichagua,CO,2021-03-28 19:49:50,9.2578,-73.8123,99.9,28,99,3.27
684,Borgarnes,IS,2021-03-28 19:49:50,64.5383,-21.9206,30.99,82,100,8.99
685,Fiche,ET,2021-03-28 19:49:50,9.8,38.7333,55.71,40,100,4.76
686,Niceville,US,2021-03-28 19:49:50,30.5169,-86.4822,82.4,78,75,12.66
687,Nalut,LY,2021-03-28 19:49:51,30.3333,10.85,65.89,17,87,10.74
